name,lat,lon,elevation_m
Edirne,41.6667,26.5667,51
Kirklareli,41.7333,27.2167,232
Luleburgaz,41.4,27.35,46
Uzunkopru,41.2667,26.6833,22
Ipsala,40.9167,26.3833,10
Corlu,41.15,27.8,183
Tekirdag,40.9833,27.5167,3
Sariyer,41.1667,29.05,59
